[
  { "name": "Warszawa", "slug": "warszawa", "voivodeship": "mazowieckie", "voivodeshipSlug": "mazowieckie", "county": "Warszawa", "lat": 52.2297, "lon": 21.0122 },
  { "name": "Kraków", "slug": "krakow", "voivodeship": "małopolskie", "voivodeshipSlug": "malopolskie", "county": "Kraków", "lat": 50.0647, "lon": 19.9450 },
  { "name": "Wrocław", "slug": "wroclaw", "voivodeship": "dolnośląskie", "voivodeshipSlug": "dolnoslaskie", "county": "Wrocław", "lat": 51.1079, "lon": 17.0385 },
  { "name": "Poznań", "slug": "poznan", "voivodeship": "wielkopolskie", "voivodeshipSlug": "wielkopolskie", "county": "Poznań", "lat": 52.4064, "lon": 16.9252 },
  { "name": "Gdańsk", "slug": "gdansk", "voivodeship": "pomorskie", "voivodeshipSlug": "pomorskie", "county": "Gdańsk", "lat": 54.3520, "lon": 18.6466 },
  { "name": "Gdynia", "slug": "gdynia", "voivodeship": "pomorskie", "voivodeshipSlug": "pomorskie", "county": "Gdynia", "lat": 54.5189, "lon": 18.5305 },
  { "name": "Łódź", "slug": "lodz", "voivodeship": "łódzkie", "voivodeshipSlug": "lodzkie", "county": "Łódź", "lat": 51.7592, "lon": 19.4560 },
  { "name": "Katowice", "slug": "katowice", "voivodeship": "śląskie", "voivodeshipSlug": "slaskie", "county": "Katowice", "lat": 50.2649, "lon": 19.0238 },
  { "name": "Lublin", "slug": "lublin", "voivodeship": "lubelskie", "voivodeshipSlug": "lubelskie", "county": "Lublin", "lat": 51.2465, "lon": 22.5684 },
  { "name": "Szczecin", "slug": "szczecin", "voivodeship": "zachodniopomorskie", "voivodeshipSlug": "zachodniopomorskie", "county": "Szczecin", "lat": 53.4285, "lon": 14.5528 },
  { "name": "Rzeszów", "slug": "rzeszow", "voivodeship": "podkarpackie", "voivodeshipSlug": "podkarpackie", "county": "Rzeszów", "lat": 50.0413, "lon": 21.9990 },
  { "name": "Białystok", "slug": "bialystok", "voivodeship": "podlaskie", "voivodeshipSlug": "podlaskie", "county": "Białystok", "lat": 53.1325, "lon": 23.1688 },
  { "name": "Bydgoszcz", "slug": "bydgoszcz", "voivodeship": "kujawsko-pomorskie", "voivodeshipSlug": "kujawsko-pomorskie", "county": "Bydgoszcz", "lat": 53.1235, "lon": 18.0084 },
  { "name": "Toruń", "slug": "torun", "voivodeship": "kujawsko-pomorskie", "voivodeshipSlug": "kujawsko-pomorskie", "county": "Toruń", "lat": 53.0138, "lon": 18.5984 },
  { "name": "Olsztyn", "slug": "olsztyn", "voivodeship": "warmińsko-mazurskie", "voivodeshipSlug": "warminsko-mazurskie", "county": "Olsztyn", "lat": 53.7784, "lon": 20.4801 },
  { "name": "Kielce", "slug": "kielce", "voivodeship": "świętokrzyskie", "voivodeshipSlug": "swietokrzyskie", "county": "Kielce", "lat": 50.8661, "lon": 20.6286 },
  { "name": "Opole", "slug": "opole", "voivodeship": "opolskie", "voivodeshipSlug": "opolskie", "county": "Opole", "lat": 50.6751, "lon": 17.9213 },
  { "name": "Radom", "slug": "radom", "voivodeship": "mazowieckie", "voivodeshipSlug": "mazowieckie", "county": "Radom", "lat": 51.4027, "lon": 21.1471 },
  { "name": "Sosnowiec", "slug": "sosnowiec", "voivodeship": "śląskie", "voivodeshipSlug": "slaskie", "county": "Sosnowiec", "lat": 50.2863, "lon": 19.1041 },
  { "name": "Tarnów", "slug": "tarnow", "voivodeship": "małopolskie", "voivodeshipSlug": "malopolskie", "county": "Tarnów", "lat": 50.0121, "lon": 20.9858 },
  { "name": "Płock", "slug": "plock", "voivodeship": "mazowieckie", "voivodeshipSlug": "mazowieckie", "county": "Płock", "lat": 52.5468, "lon": 19.7064 },
  { "name": "Elbląg", "slug": "elblag", "voivodeship": "warmińsko-mazurskie", "voivodeshipSlug": "warminsko-mazurskie", "county": "Elbląg", "lat": 54.1561, "lon": 19.4045 },
  { "name": "Wałbrzych", "slug": "walbrzych", "voivodeship": "dolnośląskie", "voivodeshipSlug": "dolnoslaskie", "county": "Wałbrzych", "lat": 50.7714, "lon": 16.2843 },
  { "name": "Koszalin", "slug": "koszalin", "voivodeship": "zachodniopomorskie", "voivodeshipSlug": "zachodniopomorskie", "county": "Koszalin", "lat": 54.1944, "lon": 16.1722 },
  { "name": "Kalisz", "slug": "kalisz", "voivodeship": "wielkopolskie", "voivodeshipSlug": "wielkopolskie", "county": "Kalisz", "lat": 51.7611, "lon": 18.0910 },
  { "name": "Legnica", "slug": "legnica", "voivodeship": "dolnośląskie", "voivodeshipSlug": "dolnoslaskie", "county": "Legnica", "lat": 51.2070, "lon": 16.1553 },
  { "name": "Zielona Góra", "slug": "zielona-gora", "voivodeship": "lubuskie", "voivodeshipSlug": "lubuskie", "county": "Zielona Góra", "lat": 51.9355, "lon": 15.5062 },
  { "name": "Gorzów Wielkopolski", "slug": "gorzow-wielkopolski", "voivodeship": "lubuskie", "voivodeshipSlug": "lubuskie", "county": "Gorzów Wielkopolski", "lat": 52.7368, "lon": 15.2288 },
  { "name": "Bielsko-Biała", "slug": "bielsko-biala", "voivodeship": "śląskie", "voivodeshipSlug": "slaskie", "county": "Bielsko-Biała", "lat": 49.8224, "lon": 19.0469 },
  { "name": "Gliwice", "slug": "gliwice", "voivodeship": "śląskie", "voivodeshipSlug": "slaskie", "county": "Gliwice", "lat": 50.2945, "lon": 18.6714 },
  { "name": "Częstochowa", "slug": "czestochowa", "voivodeship": "śląskie", "voivodeshipSlug": "slaskie", "county": "Częstochowa", "lat": 50.8118, "lon": 19.1203 }
]
